{
  "type": "FeatureCollection",
  "features": [
    {
      "type": "Feature",
      "properties": { "name": "Oxford Circus" },
      "geometry": { "type": "Point", "coordinates": [-0.141099, 51.515419] }
    },
    {
      "type": "Feature",
      "properties": { "name": "King's Cross St. Pancras" },
      "geometry": { "type": "Point", "coordinates": [-0.123194, 51.530663] }
    },
    {
      "type": "Feature",
      "properties": { "name": "Victoria" },
      "geometry": { "type": "Point", "coordinates": [-0.144262, 51.496424] }
    },
    {
      "type": "Feature",
      "properties": { "name": "Bank" },
      "geometry": { "type": "Point", "coordinates": [-0.089039, 51.513314] }
    },
    {
      "type": "Feature",
      "properties": { "name": "Liverpool Street" },
      "geometry": { "type": "Point", "coordinates": [-0.083182, 51.517372] }
    },
    {
      "type": "Feature",
      "properties": { "name": "Waterloo" },
      "geometry": { "type": "Point", "coordinates": [-0.113387, 51.503299] }
    },
    {
      "type": "Feature",
      "properties": { "name": "Paddington" },
      "geometry": { "type": "Point", "coordinates": [-0.175579, 51.515906] }
    },
    {
      "type": "Feature",
      "properties": { "name": "Euston" },
      "geometry": { "type": "Point", "coordinates": [-0.133816, 51.528083] }
    },
    {
      "type": "Feature",
      "properties": { "name": "London Bridge" },
      "geometry": { "type": "Point", "coordinates": [-0.088557, 51.505721] }
    },
    {
      "type": "Feature",
      "properties": { "name": "Leicester Square" },
      "geometry": { "type": "Point", "coordinates": [-0.128324, 51.511289] }
    },
    {
      "type": "Feature",
      "properties": { "name": "Piccadilly Circus" },
      "geometry": { "type": "Point", "coordinates": [-0.133948, 51.510067] }
    },
    {
      "type": "Feature",
      "properties": { "name": "Covent Garden" },
      "geometry": { "type": "Point", "coordinates": [-0.124357, 51.512947] }
    },
    {
      "type": "Feature",
      "properties": { "name": "Westminster" },
      "geometry": { "type": "Point", "coordinates": [-0.124932, 51.501402] }
    },
    {
      "type": "Feature",
      "properties": { "name": "Green Park" },
      "geometry": { "type": "Point", "coordinates": [-0.142787, 51.506947] }
    },
    {
      "type": "Feature",
      "properties": { "name": "Bond Street" },
      "geometry": { "type": "Point", "coordinates": [-0.149536, 51.514304] }
    },
    {
      "type": "Feature",
      "properties": { "name": "Tottenham Court Road" },
      "geometry": { "type": "Point", "coordinates": [-0.130881, 51.516426] }
    },
    {
      "type": "Feature",
      "properties": { "name": "Angel" },
      "geometry": { "type": "Point", "coordinates": [-0.105898, 51.532624] }
    },
    {
      "type": "Feature",
      "properties": { "name": "Old Street" },
      "geometry": { "type": "Point", "coordinates": [-0.087807, 51.525864] }
    },
    {
      "type": "Feature",
      "properties": { "name": "Moorgate" },
      "geometry": { "type": "Point", "coordinates": [-0.088756, 51.518705] }
    },
    {
      "type": "Feature",
      "properties": { "name": "Farringdon" },
      "geometry": { "type": "Point", "coordinates": [-0.104899, 51.520246] }
    },
    {
      "type": "Feature",
      "properties": { "name": "Barbican" },
      "geometry": { "type": "Point", "coordinates": [-0.097755, 51.520281] }
    },
    {
      "type": "Feature",
      "properties": { "name": "Russell Square" },
      "geometry": { "type": "Point", "coordinates": [-0.124437, 51.523096] }
    },
    {
      "type": "Feature",
      "properties": { "name": "Holborn" },
      "geometry": { "type": "Point", "coordinates": [-0.120095, 51.517423] }
    },
    {
      "type": "Feature",
      "properties": { "name": "Chancery Lane" },
      "geometry": { "type": "Point", "coordinates": [-0.111491, 51.518356] }
    },
    {
      "type": "Feature",
      "properties": { "name": "St. Paul's" },
      "geometry": { "type": "Point", "coordinates": [-0.097471, 51.515316] }
    },
    {
      "type": "Feature",
      "properties": { "name": "Mansion House" },
      "geometry": { "type": "Point", "coordinates": [-0.094096, 51.512139] }
    },
    {
      "type": "Feature",
      "properties": { "name": "Cannon Street" },
      "geometry": { "type": "Point", "coordinates": [-0.090394, 51.511264] }
    },
    {
      "type": "Feature",
      "properties": { "name": "Monument" },
      "geometry": { "type": "Point", "coordinates": [-0.085978, 51.510779] }
    },
    {
      "type": "Feature",
      "properties": { "name": "Tower Hill" },
      "geometry": { "type": "Point", "coordinates": [-0.076548, 51.510176] }
    },
    {
      "type": "Feature",
      "properties": { "name": "Aldgate" },
      "geometry": { "type": "Point", "coordinates": [-0.075689, 51.514246] }
    },
    {
      "type": "Feature",
      "properties": { "name": "Whitechapel" },
      "geometry": { "type": "Point", "coordinates": [-0.059971, 51.519518] }
    },
    {
      "type": "Feature",
      "properties": { "name": "Bethnal Green" },
      "geometry": { "type": "Point", "coordinates": [-0.055437, 51.527222] }
    },
    {
      "type": "Feature",
      "properties": { "name": "Mile End" },
      "geometry": { "type": "Point", "coordinates": [-0.033382, 51.525122] }
    },
    {
      "type": "Feature",
      "properties": { "name": "Stratford" },
      "geometry": { "type": "Point", "coordinates": [-0.003671, 51.541895] }
    },
    {
      "type": "Feature",
      "properties": { "name": "Canary Wharf" },
      "geometry": { "type": "Point", "coordinates": [-0.018897, 51.503542] }
    },
    {
      "type": "Feature",
      "properties": { "name": "North Greenwich" },
      "geometry": { "type": "Point", "coordinates": [0.003596, 51.500338] }
    },
    {
      "type": "Feature",
      "properties": { "name": "Greenwich" },
      "geometry": { "type": "Point", "coordinates": [-0.014596, 51.477761] }
    },
    {
      "type": "Feature",
      "properties": { "name": "Brixton" },
      "geometry": { "type": "Point", "coordinates": [-0.114888, 51.462618] }
    },
    {
      "type": "Feature",
      "properties": { "name": "Stockwell" },
      "geometry": { "type": "Point", "coordinates": [-0.122965, 51.472154] }
    },
    {
      "type": "Feature",
      "properties": { "name": "Vauxhall" },
      "geometry": { "type": "Point", "coordinates": [-0.124136, 51.485743] }
    },
    {
      "type": "Feature",
      "properties": { "name": "Pimlico" },
      "geometry": { "type": "Point", "coordinates": [-0.133653, 51.489337] }
    },
    {
      "type": "Feature",
      "properties": { "name": "Sloane Square" },
      "geometry": { "type": "Point", "coordinates": [-0.156519, 51.492359] }
    },
    {
      "type": "Feature",
      "properties": { "name": "South Kensington" },
      "geometry": { "type": "Point", "coordinates": [-0.173914, 51.494094] }
    },
    {
      "type": "Feature",
      "properties": { "name": "Gloucester Road" },
      "geometry": { "type": "Point", "coordinates": [-0.18275, 51.494316] }
    },
    {
      "type": "Feature",
      "properties": { "name": "Earl's Court" },
      "geometry": { "type": "Point", "coordinates": [-0.193373, 51.491599] }
    },
    {
      "type": "Feature",
      "properties": { "name": "High Street Kensington" },
      "geometry": { "type": "Point", "coordinates": [-0.191782, 51.501076] }
    },
    {
      "type": "Feature",
      "properties": { "name": "Notting Hill Gate" },
      "geometry": { "type": "Point", "coordinates": [-0.196104, 51.509128] }
    },
    {
      "type": "Feature",
      "properties": { "name": "Bayswater" },
      "geometry": { "type": "Point", "coordinates": [-0.187791, 51.512268] }
    },
    {
      "type": "Feature",
      "properties": { "name": "Queensway" },
      "geometry": { "type": "Point", "coordinates": [-0.187247, 51.510312] }
    },
    {
      "type": "Feature",
      "properties": { "name": "Lancaster Gate" },
      "geometry": { "type": "Point", "coordinates": [-0.175664, 51.511717] }
    }
  ]
}
